"stop_id","stop_name","stop_code","stop_lat","stop_lon","zone_id"
1,"Gordon Rd, Clocktower","353",-45.8759478,170.3488603,"5900_3C"
2,"Factory Rd, 66","268",-45.8717692,170.3552267,"5900_3C"
3,"Mosgiel Terminus","269",-45.8693389,170.3637764,"5900_3C"
4,"Bus Hub Stop F","5005",-45.872345,170.506381,"5900_1"
5,"Factory Rd, 18","262",-45.8732411,170.3500825,"5900_3C"
6,"Stuart St, King Edward Court","951",-45.87284,170.4987297,"5900_1"
7,"Princes St, Go Bus Depot","768",-45.8845,170.4976908,"5900_1"
8,"Chapman St, 102","184",-45.8569406,170.4907211,"5900_2E"
9,"Bus Hub Stop C","5002",-45.872799,170.505907,"5900_1"
10,"Hillside Rd, 169","446",-45.8935583,170.4977617,"5900_1/2A"
11,"Corstorphine Rd, 136","196",-45.9062178,170.4707331,"5900_2B"
12,"Middleton Rd, 292","584",-45.9101608,170.4654603,"5900_2B"
13,"King Edward St, 134","484",-45.8935133,170.4986089,"5900_1/2A"
14,"Bus Hub Stop H","5007",-45.872989,170.506003,"5900_1"
15,"King Edward St, 135","482",-45.8937117,170.4986056,"5900_1/2A"
16,"Bus Hub Stop B","5001",-45.873012,170.505798,"5900_1"
17,"George St, 3","313",-45.8154564,170.6220658,"5900_3E"
18,"St Clair Terminus","73",-45.9116722,170.4886428,"5900_2B"
19,"Albany St, Clubs & Societies","11",-45.8674228,170.5127881,"5900_1"
20,"Bus Hub Stop A","5000",-45.873237,170.505672,"5900_1"
21,"Clyde St, 66","190",-45.8663978,170.5163861,"5900_1"
22,"Stuart St, 330","949",-45.8705514,170.4973214,"5900_1"
23,"Bus Hub Stop G","5006",-45.872607,170.506224,"5900_1"
24,"Kaikorai Valley Rd, 513","457",-45.8860275,170.4642219,"5900_2D"
25,"Bank St, opposite Dolphin St","60",-45.8546569,170.5170597,"5900_1/2E"
26,"King Edward St, 275","476",-45.8962281,170.5007492,"5900_2B"
27,"George St, 459","309",-45.8667664,170.5076694,"5900_1"
28,"Forth St, Terminus on Leith Bridge","286",-45.8674347,170.5173347,"5900_1"
29,"North Rd, 164","646",-45.8505911,170.5256875,"5900_2F"
30,"North Rd, 17","645",-45.854625,170.5194014,"5900_1/2E"
31,"George St, Golden Centre","310",-45.8712786,170.5051336,"5900_1"
32,"Bus Hub Stop E","5004",-45.872205,170.506253,"5900_1"
33,"Mornington Rd, 118","1114",-45.8925083,170.4643939,"5900_2D"
34,"Mailer St, 2","512",-45.8818242,170.4822817,"5900_1/2C"
35,"Chapman St, 46","182",-45.8586031,170.4893719,"5900_2E"
36,"Mornington Rd Terminus","1117",-45.8953461,170.4630739,"5900_2D"
37,"Hospital South","1195",-45.869527,170.507985,"5900_1"
38,"Andersons Bay Rd, 271","22",-45.8909158,170.5023217,"5900_1/2A"
39,"Mornington Rd, 82","1113",-45.8912856,170.4662014,"5900_2D"
41,"Princes St, 151","769",-45.8767272,170.5022036,"5900_1"
42,"Glenpark Ave, 50","330",-45.8843786,170.4812239,"5900_2D"
43,"Highgate, 460","428",-45.8617994,170.4956925,"5900_2E"
44,"Mornington Terminus, Mailer St","513",-45.8817133,170.4827436,"5900_1/2C"
46,"Bus Hub Stop D","5003",-45.872441,170.506127,"5900_1"
47,"Bus Hub Stop I","5008",-45.873181,170.505902,"5900_1"
48,"Macandrew Rd, 154","499",-45.898405,170.4960908,"5900_2B"
49,"Forbury Rd, 232","280",-45.9108328,170.4898314,"5900_2B"
50,"Stuart St, under Highgate","948",-45.8664353,170.4898919,"5900_1/2D"
51,"Taieri Rd, 278","968",-45.8579914,170.4780372,"5900_2E"
52,"State Highway One, 28","1181",-45.876766,170.505079,"5900_1"
53,"Crawford St, 220","1180",-45.884971,170.499174,"5900_1"
54,"Prince Albert Rd, 110","758",-45.9042819,170.5075875,"5900_2B"
55,"Taieri Rd, 302","980",-45.8570906,170.4773153,"5900_2E"
56,"Halfway Bush Terminus","50",-45.8553828,170.4624803,"5900_2E"
57,"Portobello Rd, 431","731",-45.8733403,170.5858953,"5900_3A"
58,"Andersons Bay Rd, 482","26",-45.89572,170.5071039,"5900_2A"
59,"Braeburn St Playground","487",-45.8865206,170.5276639,"5900_2A"
60,"Harington Point Rd, 2 (Portobello)","756",-45.8395417,170.6514119,"5900_3A"
61,"Princes St, 265","773",-45.8781508,170.5015133,"5900_1"
62,"Forbury Rd 94","283",-45.9041558,170.4876178,"5900_2B"
63,"Rattray St, 145","793",-45.8773764,170.5010714,"5900_1"
64,"Elgin Rd, 16","1033",-45.8814247,170.47614,"5900_2D"
65,"Princes St, cnr Manor Pl","781",-45.8828361,170.4986264,"5900_1"
66,"George St, 286","306",-45.8702014,170.5058847,"5900_1"
67,"Mailer St, 48","1048",-45.8810211,170.47894,"5900_2D"
68,"Princes St, 575","779",-45.8829525,170.4988164,"5900_1"
69,"Mailer St, 58","514",-45.88092,170.4775233,"5900_2D"
70,"Kenmure Rd, cnr Mailer Street","466",-45.88039,170.4760192,"5900_2D"
71,"Union St East, outside College of Education","1183",-45.8672575,170.5200278,"5900_1"
72,"Harbour Tce, 58","364",-45.8662828,170.5196492,"5900_1"
73,"Eglinton Rd, opposite Peel St","250",-45.8823597,170.4846817,"5900_1/2C"
74,"SH88, Logan Park","849",-45.8681792,170.5238258,"5900_1"
75,"21 Arthur St, opposite Otago Boys","5010",-45.872273,170.49575,"5900_1"
76,"Andersons Bay Rd, Oval","18",-45.884885,170.4982739,"5900_1"
77,"Stanley St, 42","930",-45.8843625,170.4716458,"5900_2D"
78,"Castle St, 53","168",-45.8743,170.5085,"5900_1"
79,"High St, 249","388",-45.879315,170.4970269,"5900_1"
80,"Bank St, opposite 30","61",-45.8545786,170.5167175,"5900_1/2E"
81,"North Rd, 118","628",-45.8517842,170.5238606,"5900_2F"
82,"Kenmure Rd, 162","470",-45.8800897,170.4762422,"5900_2D"
83,"Bus Hub Stop J","5009",-45.873462,170.505747,"5900_1"
84,"Musselburgh Rise, 42","613",-45.8981461,170.5137281,"5900_2A"
85,"George St, 888","301",-45.8588519,170.5122886,"5900_1/2E"
86,"Main South Rd, 183","538",-45.9015919,170.4322108,"5900_2C"
87,"Green Island Super Stop (Inbound)","535",-45.9024753,170.42738,"5900_2C"
88,"Princes St, 449","778",-45.8809489,170.4999481,"5900_1"
89,"Main Rd Fairfield, cnr Fairplay St","519",-45.8987906,170.3928864,"5900_3C"
90,"Andersons Bay Rd, cnr Princes St","24",-45.8845481,170.4982581,"5900_1"
91,"Main South Rd, 299 Sunnyvale","525",-45.9013478,170.4183581,"5900_2C"
92,"Main South Rd, cnr Harraway Rd","527",-45.9020981,170.4363222,"5900_2C"
93,"Brighton Rd, cnr Main South Rd","112",-45.9027367,170.4249994,"5900_2C"
94,"Drivers Rd, 34A","224",-45.8599047,170.5024053,"5900_2E"
95,"Portobello Rd, Macandrew Bay","736",-45.8678,170.5974217,"5900_3A"
95,"Portobello Rd, Macandrew Bay","737",-45.8683353,170.5975606,"5900_3A"
96,"Portobello Rd, Luss Rd (Company Bay)","734",-45.8558989,170.5987572,"5900_3A"
96,"Portobello Rd, Luss Rd (Company Bay)","735",-45.8560019,170.5989836,"5900_3A"
97,"Corstorphine Rd, cnr Sidey St","201",-45.9033556,170.4717672,"5900_2B"
98,"Highcliff Rd, 242","412",-45.8871925,170.5430783,"5900_2A"
99,"George St, 607","294",-45.8640089,170.5092244,"5900_1"
100,"Signal Hill Rd, 160","888",-45.8520164,170.5371711,"5900_2F"
101,"Signal Hill Rd, 80","892",-45.8539803,170.5314803,"5900_2F"
102,"Signal Hill Rd, 138","887",-45.8523836,170.5357967,"5900_2F"
103,"Signal Hill Rd, 118","885",-45.8528389,170.5344967,"5900_2F"
104,"George St, 664","295",-45.8630889,170.5099025,"5900_1"
105,"North Rd, 440","641",-45.8435286,170.5410014,"5900_2F"
106,"School Stop -LPHS","3015",-45.8624481,170.5271644,"5900_1"
107,"Bank St, 30","58",-45.8546328,170.5173536,"5900_1/2E"
108,"North Rd, 205","630",-45.8494464,170.5281722,"5900_2F"
109,"Princes St, 138","770",-45.8762564,170.5023244,"5900_1"
110,"Pine Hill Rd, 236","691",-45.8482017,170.5111103,"5900_2F"
111,"Great King St North, Botanic Gardens","355",-45.8553003,170.5184564,"5900_1/2E"
112,"George St, 1081","1035",-45.8550339,170.5142942,"5900_1/2E"
113,"George St, 1076","291",-45.8551917,170.5143369,"5900_1/2E"
114,"North Rd, 292","635",-45.8484308,170.5315125,"5900_2F"
115,"Macandrew Rd, 282","504",-45.9021347,170.4870047,"5900_2B"
116,"North Rd, 338","648",-45.8470783,170.5349736,"5900_2F"
118,"North Rd, 374","647",-45.8459278,170.5369206,"5900_2F"
119,"Taieri Rd, 198","976",-45.8621306,170.4803728,"5900_2E"
120,"North Rd, 392","639",-45.8452214,170.5381217,"5900_2F"
121,"Taieri Rd, 240","965",-45.8598514,170.4784364,"5900_2E"
122,"Andersons Bay Rd, 393","17",-45.8944844,170.5047739,"5900_2A"
123,"North Rd, 117","627",-45.8517478,170.5236686,"5900_2F"
124,"Normanby Terminus","658",-45.8433247,170.5411564,"5900_2F"
125,"Prince Albert Rd, 50","766",-45.9011369,170.5049258,"5900_2B"
126,"Taieri Rd, 372","970",-45.8561883,170.4711678,"5900_2E"
127,"George St, 472","308",-45.8667417,170.5077989,"5900_1"
128,"George St, 745","296",-45.8614853,170.5106467,"5900_1"
129,"Stuart St, cnr Tyne Street","952",-45.8662406,170.4898489,"5900_1/2D"
130,"Taieri Rd, 178","963",-45.8629314,170.4816525,"5900_2E"
131,"Forbury Rd, 198","278",-45.9090861,170.4883556,"5900_2B"
132,"George St, 77-79","298",-45.8176456,170.6191297,"5900_3E"
133,"Ross St, 34","816",-45.8713619,170.4845522,"5900_2E"
134,"Stanley St, 8","929",-45.8849417,170.4745042,"5900_2D"
135,"Kaikorai Valley College, Gymnasium Complex","1088",-45.8829539,170.4668394,"5900_2D"
136,"Kenmure Rd, 332","471",-45.8857858,170.4670394,"5900_2D"
137,"Main South Rd, 115","532",-45.9021503,170.4434039,"5900_2C"
138,"Main South Rd, 208","537",-45.9019317,170.4297222,"5900_2C"
139,"Stanley St, 39","927",-45.8844811,170.4719822,"5900_2D"
140,"Mitchell Ave, 5","589",-45.8879358,170.4744897,"5900_2D"
141,"Musselburgh Rise, 192","612",-45.8963042,170.5243083,"5900_2A"
142,"Cavell St, 112","172",-45.9022003,170.5222592,"5900_2A"
143,"Cavell St, 94","177",-45.9016186,170.5212594,"5900_2A"
144,"Hospital North","1194",-45.869508,170.507759,"5900_1"
145,"Main South Rd, 133","536",-45.9018525,170.4410414,"5900_2C"
146,"York Place, 125","1025",-45.8725578,170.4988283,"5900_1"
147,"Jervois St, cnr Crawford St","1182",-45.882782,170.500934,"5900_1"
148,"Prince Albert, 92","762",-45.9030536,170.5065467,"5900_2B"
149,"Macandrew Rd opposite Kirkcaldy St","495",-45.8993703,170.4937569,"5900_2B"
150,"George St, 590","293",-45.8645014,170.5091103,"5900_1"
151,"Rattray St, 150","792",-45.8772647,170.5011064,"5900_1"
152,"Macandrew Rd, 240","501",-45.9006753,170.4905914,"5900_2B"
153,"North Rd, 30","636",-45.8545436,170.5197792,"5900_1/2E"
154,"North Rd, 80","642",-45.8529692,170.5220097,"5900_2F"
155,"Andersons Bay Rd, 559","19",-45.8974369,170.5095153,"5900_2A"
156,"Princes St, 373","774",-45.8797794,170.50061,"5900_1"
157,"Princes St, 300","767",-45.8786278,170.5009939,"5900_1"
158,"Earls Rd, 65","240",-45.9087864,170.4791867,"5900_2B"
159,"Middleton Rd, 176","579",-45.9086864,170.4744364,"5900_2B"
160,"Stuart St, OBHS","954",-45.8706644,170.4969828,"5900_1"
161,"Taieri Rd, Nairn Street","978",-45.865221,170.485531,"5900_2E"
162,"Taieri Rd, 117","961",-45.8655842,170.4858306,"5900_2E"
163,"Mellor St, Cableways","1131",-45.8660056,170.4845217,"5900_2E"
164,"Andersons Bay Rd, 280","25",-45.8906356,170.5023919,"5900_1/2A"
165,"Gordon Rd, 13","154",-45.8844019,170.3537994,"5900_3C"
166,"Gordon Rd, 25","352",-45.8834553,170.3532439,"5900_3C"
167,"Midland St, cnr Portsmouth Drive","586",-45.8916311,170.5104347,"5900_2A"
168,"Green Island Super Stop (Outbound)","533",-45.9029294,170.4264436,"5900_2C"
169,"Opoho Rd, Gardens","669",-45.8563886,170.5232711,"5900_2F"
170,"George St Normal School","303",-45.8583283,170.5124222,"5900_1/2E"
171,"Opoho Rd, 11","670",-45.8551461,170.5193069,"5900_1/2E"
172,"Pine Hill Rd, 310","696",-45.8464125,170.5162139,"5900_2F"
173,"Harington Point Rd, cnr Tamatea Rd","366",-45.8005144,170.7119047,"5900_4A"
174,"South Rd, 545","915",-45.896557,170.465069,"5900_2B"
175,"South Rd, 252","906",-45.8958344,170.481945,"5900_2B"
176,"George St, 811","300",-45.86048,170.5112117,"5900_1"
177,"Pine Hill Rd, 258","702",-45.8479928,170.5126956,"5900_2F"
178,"Pryde St","783",-45.8479286,170.5201508,"5900_2F"
179,"Bank St, Layby","62",-45.8549425,170.5180794,"5900_1/2E"
180,"Duke St, 24","230",-45.8568133,170.5136914,"5900_1/2E"
181,"South Rd, Cemetery","918",-45.8906478,170.4941806,"5900_1"
182,"Duke St, 18","229",-45.8565478,170.5126456,"5900_1/2E"
183,"Prince Albert Rd, 136","761",-45.9058508,170.5089203,"5900_2B"
184,"Pine Hill Rd, 286","695",-45.8472433,170.5145581,"5900_2F"
185,"King Edward St, 413","481",-45.8992083,170.5032764,"5900_2B"
186,"Pine Hill Rd, 386","700",-45.8416544,170.5193711,"5900_2F"
187,"Tomahawk Rd, Ocean Grove","995",-45.9036928,170.5495761,"5900_2A"
189,"Main Rd Fairfield, 11","518",-45.8971928,170.4025308,"5900_3C"
190,"Main Rd Fairfield, 101","516",-45.8991572,170.3917056,"5900_3C"
191,"Main Rd Fairfield, 53","517",-45.8980467,170.3975408,"5900_3C"
192,"Quarry Rd, 1","786",-45.8861142,170.3546597,"5900_3C"
193,"Opoho Rd, Botanic Gardens","668",-45.8552661,170.5192778,"5900_1/2E"
195,"Main Rd Fairfield, cnr Morris Rd","520",-45.8999811,170.3866856,"5900_3C"
196,"North Rd, 204","629",-45.8496758,170.5278356,"5900_2F"
197,"Playfair St, 66","711",-45.8997017,170.4788031,"5900_2B"
198,"Pine Hill Rd, 344","698",-45.8445497,170.5177275,"5900_2F"
199,"Pine Hill Rd, 395","701",-45.8413064,170.5195214,"5900_2F"
200,"Stevenson Rd, 61","941",-45.9039361,170.4655381,"5900_2D"
201,"Main South Rd, 12","939",-45.9020672,170.4573672,"5900_2D"
202,"Kaikorai Valley Rd, 70","455",-45.8666822,170.4823186,"5900_2E"
203,"Highgate, 399","426",-45.8643711,170.4936047,"5900_2E"
204,"High St, 327","390",-45.8800392,170.4946461,"5900_1"
205,"Napier St, 6","620",-45.878874,170.479087,"5900_2E"
206,"Andersons Bay Rd, 486","30",-45.8967025,170.5086608,"5900_2A"
207,"Murano St, 64","596",-45.8842483,170.5397239,"5900_2A"
208,"Andersons Bay Rd, 521","21",-45.8962789,170.5076022,"5900_2A"
209,"High St, 246","387",-45.8790817,170.4974344,"5900_1"
210,"Musselburgh Rise, 140","610",-45.8976986,170.5208542,"5900_2A"
211,"Rosebery St, 47","812",-45.877026,170.477276,"5900_2E"
212,"Shiel Hill Terminus","879",-45.8856603,170.5449592,"5900_2A"
213,"King Edward St, 375","479",-45.8982236,170.5024431,"5900_2B"
214,"Portobello Rd, Turnbulls Bay","753",-45.8464303,170.6324258,"5900_3A"
214,"Portobello Rd, Turnbulls Bay","754",-45.8461808,170.6331253,"5900_3A"
215,"Albany St, Central Library","13",-45.8673633,170.5129228,"5900_1"
216,"Macandrew Rd, 122","497",-45.8975936,170.4979569,"5900_2B"
217,"King Edward St, 386","480",-45.8985775,170.5029006,"5900_2B"
218,"Castle St, 289","169",-45.8694394,170.5113175,"5900_1"
219,"Kaikorai Valley Rd, 704","1085",-45.8968789,170.4566383,"5900_2D"
220,"Kaikorai Valley Rd, 504","1087",-45.8859214,170.4640664,"5900_2D"
221,"Kaikorai Valley Rd, 461","463",-45.883125,170.4669247,"5900_2D"
222,"Taieri Rd, 366","981",-45.8564636,170.4735953,"5900_2E"
223,"Drivers Rd, 77","1190",-45.858765,170.500407,"5900_2E"
224,"Brockville Rd, 276","137",-45.8671114,170.4577956,"5900_2E"
225,"Gordon Rd, 63","343",-45.8796108,170.3510006,"5900_3C"
226,"Gordon Rd, 85","345",-45.8778258,170.3499592,"5900_3C"
227,"Hillside Rd, 168","440",-45.8935394,170.4975028,"5900_1/2A"
228,"Cumberland St, outside New World","5",-45.8711042,170.5085714,"5900_1"
229,"Magnetic St, 4","510",-45.8189033,170.6223586,"5900_3E"
231,"George St, 984","302",-45.8574136,170.5130978,"5900_1/2E"
232,"Glenpark Ave, 130","329",-45.8886453,170.4791314,"5900_2D"
233,"Mitchell Ave, 41","588",-45.8884683,170.4770536,"5900_2D"
234,"Portobello Rd, Broad Bay","718",-45.8479958,170.6221033,"5900_3A"
234,"Portobello Rd, Broad Bay","719",-45.8478733,170.6226533,"5900_3A"
235,"Portobello Rd, Nicholas St","743",-45.8385622,170.64477,"5900_3A"
236,"Portobello Rd, Glengyle St","732",-45.8885736,170.5226636,"5900_2A"
236,"Portobello Rd, Glengyle St","744",-45.8887628,170.5223767,"5900_2A"
237,"Portobello Rd, 275, cnr Irvine Rd","713",-45.8798139,170.5480303,"5900_2A"
238,"Portobello Rd, Rosehill Rd","749",-45.8760258,170.5806072,"5900_2A"
239,"Portobello Rd, Proctor Rd","748",-45.880145,170.5497683,"5900_2A"
240,"Andersons Bay Rd, 384","28",-45.8941672,170.5047728,"5900_2A"
241,"Portobello Rd, Castlewood Rd (Company Bay)","721",-45.8582019,170.60054,"5900_3A"
242,"Portobello Rd, Doon St","725",-45.8837647,170.527715,"5900_2A"
243,"Otakou Bus Shelter","678",-45.8038006,170.700155,"5900_4A"
244,"Portobello Rd, Dublin Bay","726",-45.8625561,170.5976739,"5900_3A"
244,"Portobello Rd, Dublin Bay","727",-45.8631533,170.5976756,"5900_3A"
245,"Severn St, 19","837",-45.8681994,170.3600236,"5900_3C"
246,"Kenmure Rd, 82","1104",-45.876255,170.4754069,"5900_2E"
247,"Kenmure Rd, 34","1099",-45.8746811,170.4777483,"5900_2E"
248,"Dale St, 2","213",-45.8612811,170.4867267,"5900_2E"
249,"School Stop - Macandrew","3037",-45.8997064,170.4932111,"5900_2B"
250,"Factory Rd, 86","270",-45.8709883,170.3579608,"5900_3C"
251,"Belford St, Reserve","79",-45.8853675,170.5333853,"5900_2A"
252,"Musselburgh Rise, 79","618",-45.8977006,170.5162831,"5900_2A"
253,"Highgate, 473","429",-45.8614031,170.4957989,"5900_2E"
254,"Highgate, Columba College","436",-45.8626364,170.4950172,"5900_2E"
255,"Stuart St, opposite Strathmore Cres","956",-45.8676078,170.4929372,"5900_1"
256,"Stuart St, cnr Strathmore Cres","950",-45.8676272,170.4925789,"5900_1"
257,"Stuart St, cnr Littlebourne Rd","953",-45.8685408,170.4947497,"5900_1"
258,"South Rd, 226","905",-45.8951875,170.4835117,"5900_2B"
259,"Stuart St, OBHS Tennis Courts","955",-45.8688514,170.4948564,"5900_1"
260,"Highgate, 343","424",-45.8660181,170.4918297,"5900_2E"
261,"North Rd, 236","631",-45.8491331,170.5294369,"5900_2F"
262,"North Rd, 169","644",-45.850275,170.5260186,"5900_2F"
263,"North Rd, 79","643",-45.8527156,170.5222042,"5900_2F"
264,"Tomahawk Rd, 286","993",-45.9035211,170.5456911,"5900_2A"
265,"Highcliff Rd, 80","418",-45.8950967,170.5369419,"5900_2A"
268,"SH88, opposite Athol Place","862",-45.8653933,170.5590883,"5900_2G"
269,"Ross St, 10","815",-45.8717314,170.4863336,"5900_2E"
270,"Aberdeen Rd, 12","12",-45.9108561,170.4821542,"5900_2B"
271,"Macandrew Rd, 175","494",-45.8988719,170.49519,"5900_2B"
272,"Princes St, opposite Jean McLean Pavilion","777",-45.8883017,170.4960483,"5900_1"
273,"Hillside Rd, 200","445",-45.8941819,170.4959308,"5900_2B"
274,"Brockville Terminus","146",-45.8671167,170.4542419,"5900_2E"
275,"Dundas St, 141","232",-45.8629786,170.5200736,"5900_1"
276,"Harington Point Rd, cnr Golf Course Rd","367",-45.8076139,170.6986039,"5900_4A"
277,"Hillside Rd, 618","443",-45.8985528,170.4853378,"5900_2B"
278,"Balmacewen Rd, 206","57",-45.8539664,170.4865878,"5900_2E"
279,"Lynn St, cnr Balmacewen Rd","493",-45.8541561,170.4860142,"5900_2E"
280,"Musselburgh Rise, 195","615",-45.8961967,170.5243769,"5900_2A"
281,"Highcliff Rd, 160","409",-45.8913186,170.5407794,"5900_2A"
282,"George St, 788","299",-45.8606558,170.5112706,"5900_1"
283,"Brockville Rd, 247","141",-45.8663964,170.4606167,"5900_2E"
284,"Silverton Rd, 72","895",-45.8967239,170.530725,"5900_2A"
285,"Highcliff Rd, 157","408",-45.8913611,170.5405992,"5900_2A"
286,"Bay View Rd, 111","66",-45.9014397,170.4990911,"5900_2B"
287,"Moreau St, crn Bellona St","5015",-45.903809,170.498687,"5900_2B"
288,"Hillside Rd, 17","1184",-45.891656,170.502537,"5900_1/2A"
289,"Crichton St, 9","208",-45.8567608,170.4848764,"5900_2E"
290,"Nairn St, 70","1049",-45.8630428,170.4880717,"5900_2E"
291,"Tomahawk Rd, Cemetery","996",-45.9030711,170.5336592,"5900_2A"
292,"High St, 310","389",-45.8798394,170.4949444,"5900_1"
293,"Kaikorai Valley Rd, 47","454",-45.8666647,170.4828981,"5900_2E"
294,"Brockville Rd, 19","139",-45.8680828,170.4742275,"5900_2E"
295,"Main Rd Fairfield, 12","515",-45.8970981,170.4022044,"5900_3C"
296,"Careys Bay Hotel","166",-45.8079856,170.6225131,"5900_3E"
297,"Highcliff Rd, 114","407",-45.8936194,170.5387358,"5900_2A"
298,"South Rd, 438","909",-45.8973994,170.4724733,"5900_2B"
299,"SH88, St Leonards","851",-45.8426439,170.5836331,"5900_2G"
300,"Albany St, Musem Reserve","16",-45.866665,170.5104489,"5900_1"
301,"Reeve St, cnr Shandon St","1052",-45.8258414,170.5995003,"5900_2G/3E"
302,"Malcom St, cnr Frederick St","1139",-45.8685708,170.5099883,"5900_1"
303,"Harrington St, cnr Fox St","372",-45.8246958,170.6171158,"5900_3E"
304,"Clyde St, 61","189",-45.866692,170.51611,"5900_1"
305,"Forbury Rd, 213","279",-45.9100564,170.4892894,"5900_2B"
306,"Stevenson Rd, 59","933",-45.8184219,170.6019694,"5900_3E"
307,"Pine Hill Rd, 164","689",-45.8511053,170.5089811,"5900_2F"
308,"Princes St, 398","771",-45.8802628,170.5000806,"5900_1"
309,"King Edward St, 19","473",-45.8908156,170.496135,"5900_1"
310,"Macandrew Rd, 252","503",-45.9013442,170.4889647,"5900_2B"
311,"Magnetic St, 34","511",-45.8207717,170.6216206,"5900_3E"
312,"Stevenson Ave, 17","934",-45.8162753,170.6049469,"5900_3E"
313,"Stevenson Ave, 2","936",-45.8163225,170.6047586,"5900_3E"
314,"Kaikorai Valley College, Main Entrance","1089",-45.8815917,170.4681911,"5900_2D"
315,"Glenmore St, 6","325",-45.8393756,170.4954803,"5900_2F"
316,"Quarry Rd, 111","785",-45.8929275,170.3573061,"5900_3C"
317,"Bond Street Terminus","Palmerston",-45.485363,170.714549,"5900_5"
318,"SH88, St Leonards Drive North","840",-45.8472558,170.5787786,"5900_2G"
319,"Portobello Rd, Edwards Bay","729",-45.8429592,170.6408983,"5900_3A"
320,"Eastbank St, 8","243",-45.8882128,170.5290831,"5900_2A"
321,"Larnach Rd, 2","486",-45.890845,170.5262167,"5900_2A"
322,"Scott St, Scout Hall","835",-45.8886569,170.5276097,"5900_2A"
323,"Helensburgh Rd, 266","380",-45.8516828,170.4835017,"5900_2E"
324,"High St, 403","392",-45.8811872,170.4908536,"5900_1"
325,"Fairfield, Main Rd, 48","521",-45.8979836,170.3973444,"5900_3C"
326,"Princes St, The Oval","776",-45.8849394,170.4976978,"5900_1"
327,"Cavell St, 130","174",-45.9030667,170.5232639,"5900_2A"
328,"King Edward St, 20","474",-45.8907544,170.4962761,"5900_1"
329,"Taieri Rd, 416","972",-45.8551139,170.4679844,"5900_2E"
330,"Princes St, 283","782",-45.8785681,170.5012822,"5900_1"
331,"Helensburgh Rd, 298","381",-45.8508344,170.481575,"5900_2E"
332,"Morris Rd, cnr Coach Rd","595",-45.899895,170.3856708,"5900_3C"
333,"Hillside Rd, 319","1060",-45.8953842,170.4933242,"5900_2B"
334,"Morris Rd, 97","1143",-45.8962275,170.3588325,"5900_3C"
335,"Mornington Rd, opposite 7","592",-45.8903008,170.4721056,"5900_2D"
336,"Helensburgh Terminus","1000",-45.8522036,170.4785969,"5900_2E"
337,"Middleton Rd, 142","580",-45.9076042,170.4767517,"5900_2B"
338,"Kenmure Rd, 144","468",-45.8790736,170.4766008,"5900_2E"
339,"Eglinton Rd, cnr Queens Drive","396",-45.8822431,170.4870236,"5900_1"
340,"High St, 440","394",-45.8816917,170.4888442,"5900_1"
341,"Musselburgh Rise, cnr Silverton Street","617",-45.8947264,170.5274942,"5900_2A"
342,"Silverton Rd, 50","894",-45.8958872,170.5299044,"5900_2A"
343,"Queen St, cnr Pearce St","788",-45.9490811,170.3260258,"5900_3B"
344,"Brighton Terminus","999",-45.9503128,170.3233608,"5900_3B"
345,"Brighton Rd, 1016","93",-45.9470328,170.3321119,"5900_3B"
346,"Highcliff Rd, 196","411",-45.8897806,170.5410653,"5900_2A"
347,"Pine Hill Rd, cnr Bank St","705",-45.8537358,170.5134511,"5900_2F"
349,"St Leonards Drive, cnr Kiwi St","872",-45.8498128,170.5779817,"5900_2G"
350,"Scobie Rd, 66","834",-45.8837897,170.5379236,"5900_2A"
351,"Portobello Rd, 562 (Company Bay)","720",-45.8582697,170.6006481,"5900_3A"
352,"Elgin Rd, 170","1034",-45.8893664,170.4731853,"5900_2D"
353,"Hillside Rd, 406","441",-45.8959311,170.4916889,"5900_2B"
354,"Rosebery St, 5","813",-45.877691,170.479749,"5900_2E"
355,"Musselburgh Rise, 84","614",-45.8977964,170.5165586,"5900_2A"
356,"Portobello Rd, Marion St","738",-45.8721503,170.5891964,"5900_3A"
356,"Portobello Rd, Marion St","739",-45.8717253,170.5895058,"5900_3A"
357,"Highcliff Rd, 38","415",-45.8967131,170.5344939,"5900_2A"
358,"Malvern St, 182","544",-45.8466725,170.5063528,"5900_2F"
359,"SH88, Jessie St","856",-45.8629264,170.5642472,"5900_2G"
360,"Pine Hill Rd, 192","690",-45.8498683,170.5102242,"5900_2F"
361,"Bay View Rd, 71","71",-45.8997592,170.5030889,"5900_2B"
362,"Bay View Rd, 87","72",-45.90049,170.5013836,"5900_2B"
363,"Brighton Rd, cnr Wavy Knowes Dr","114",-45.9212269,170.4075547,"5900_3B"
364,"Brockville Rd, 224","133",-45.8648136,170.4618342,"5900_2E"
365,"Highgate, 280","423",-45.8676108,170.4895008,"5900_2E"
366,"SH88, opposite 253","860",-45.8660314,170.5560014,"5900_2G"
367,"High St, 184","386",-45.8785336,170.4992378,"5900_1"
368,"High St, 412","393",-45.8812464,170.4903019,"5900_1"
369,"High St, 382","391",-45.8807597,170.4919114,"5900_1"
370,"Larnach Rd, 237","485",-45.8826722,170.5390275,"5900_2A"
371,"Belford St, 68","77",-45.8875933,170.5307025,"5900_2A"
372,"Belford St, 94","78",-45.8863831,170.5321594,"5900_2A"
373,"Belford St, 144","76",-45.8835617,170.5354597,"5900_2A"
374,"Middleton Rd, 240","577",-45.9093589,170.4701433,"5900_2B"
376,"Corstorphine Rd, 143","197",-45.9062578,170.4707958,"5900_2B"
377,"Middleton Rd, 285","585",-45.91028,170.4651203,"5900_2B"
378,"South Rd, 350","919",-45.8959978,170.4784347,"5900_2B"
379,"Playfair St, 2","710",-45.8964839,170.4803344,"5900_2B"
380,"Portobello Rd, 649","741",-45.8488936,170.6189336,"5900_3A"
381,"Highgate, 53","1103",-45.8716261,170.4816253,"5900_2E"
382,"Ross St, 50","819",-45.8711358,170.4834853,"5900_2E"
383,"Highgate, 21","1102",-45.8727164,170.4802172,"5900_2E"
384,"Highgate, 227","421",-45.8688422,170.4869519,"5900_2E"
385,"Castle St, 201","170",-45.8712789,170.51029,"5900_1"
386,"SH88, District Rd","853",-45.8290567,170.5929133,"5900_2G"
386,"SH88, District Rd","1056",-45.8287258,170.5931556,"5900_2G"
387,"Andersons Bay Rd, 357","20",-45.8932075,170.5037789,"5900_2A"
388,"Kaikorai Valley Rd, 200","452",-45.8703056,170.4738936,"5900_2E"
389,"Kaikorai Valley Rd, 150","451",-45.8681494,170.4769647,"5900_2E"
390,"South Rd, 400","1123",-45.8963067,170.4752633,"5900_2B"
391,"David St, 42","220",-45.8975167,170.4828547,"5900_2B"
392,"Royal Cres, opposite Culling Park","825",-45.9027042,170.5132883,"5900_2A"
393,"Great King St, 686","356",-45.8601775,170.51305,"5900_1"
394,"Gladstone Rd, 184","320",-45.8489847,170.5136725,"5900_2F"
395,"Macandrew Rd, 257","1122",-45.9013906,170.4890644,"5900_2B"
396,"Balmacewen Rd, cnr Blantyne Rd","1119",-45.8537753,170.4851347,"5900_2E"
397,"Macandrew Rd, 67","507",-45.8965928,170.5006042,"5900_2B"
398,"Royal Cres, 17","824",-45.9006822,170.5123975,"5900_2A"
399,"Marlow St, 86","563",-45.9009183,170.5194039,"5900_2A"
400,"Arthur St, Otago Boys","5011",-45.872051,170.495682,"5900_1"
401,"Highgate, 408","427",-45.8638408,170.4943372,"5900_2E"
402,"Harington Point Rd, 932","370",-45.7946555,170.7265822,"5900_4A"
403,"Portobello Rd, Porterfield St","716",-45.8651433,170.5974275,"5900_3A"
403,"Portobello Rd, Porterfield St","717",-45.8651044,170.5975189,"5900_3A"
404,"Harington Point Rd, 238","371",-45.8300514,170.6717767,"5900_3A"
405,"Malvern St, 220","546",-45.8447586,170.5064333,"5900_2F"
406,"Glenpark Ave, 72","328",-45.8857186,170.4805753,"5900_2D"
407,"Marlow St, 62","561",-45.9022133,170.5177297,"5900_2A"
408,"SH88, Moller Park","869",-45.8684403,170.5412003,"5900_2G"
409,"Waimea Ave, 92","1020",-45.8982544,170.46839,"5900_2B"
410,"Kaikorai Valley Rd, 566","1086",-45.8898267,170.4615658,"5900_2D"
411,"Kaikorai Valley Rd, 624","1077",-45.8932231,170.4596486,"5900_2D"
412,"Stevenson Ave, 54","935",-45.8184225,170.6018292,"5900_3E"
413,"Malvern St, 397","289",-45.8384456,170.4988256,"5900_2F"
414,"Rattray St, Arthur St School","794",-45.8736158,170.4942994,"5900_1"
415,"Isadore Rd, 45","1041",-45.9113364,170.47618,"5900_2B"
416,"Isadore Rd, 15","1042",-45.9100756,170.4751069,"5900_2B"
417,"Main South Rd, 142","530",-45.9018322,170.4399856,"5900_2C"
418,"Glenpark Ave, opposite 56","331",-45.8847622,170.4811053,"5900_2D"
419,"Glenpark Ave, 35","332",-45.8836275,170.4816697,"5900_2D"
420,"Garden Village Terminus","290",-45.8443653,170.4999494,"5900_2F"
421,"Gordon Rd, 43","338",-45.8811186,170.3520992,"5900_3C"
422,"Brockville Rd, 248","134",-45.8663861,170.4607725,"5900_2E"
423,"Brockville Rd, 48","136",-45.8665558,170.4728958,"5900_2E"
424,"South Rd, 172","903",-45.8939161,170.4865936,"5900_2B"
425,"Factory Rd, 75","264",-45.8714056,170.3558075,"5900_3C"
426,"Morris Rd, cnr Chain Hill Rd","593",-45.8982911,170.3687192,"5900_3C"
426,"Morris Rd, cnr Chain Hill Rd","594",-45.8981103,170.3683383,"5900_3C"
427,"Main South Rd, 188","522",-45.9020447,170.4333739,"5900_2C"
428,"Main South Rd, 168","526",-45.9022269,170.4357644,"5900_2C"
429,"Hillside Rd, 520","444",-45.8977569,170.4872592,"5900_2B"
430,"Corstorphine Rd, 12","195",-45.9011367,170.4767375,"5900_2B"
431,"South Rd, 289","925",-45.8962567,170.4807797,"5900_2B"
432,"Royal Tce, 68","827",-45.8652231,170.5048261,"5900_1"
433,"Balmacewen Rd, 185","56",-45.8539433,170.4890469,"5900_2E"
434,"South Rd, Princes St","901",-45.8882783,170.4958881,"5900_1"
435,"Opoho Rd, cnr Lovelock Ave","667",-45.8574806,170.5267461,"5900_2F"
436,"Brighton Rd, 45","97",-45.9083061,170.419375,"5900_2C"
438,"Borlases Rd, opposite anchor","85",-45.8190886,170.6091944,"5900_3E"
439,"Kaikorai Valley Rd, 394","1130",-45.8800564,170.4696536,"5900_2D"
440,"Kaikorai Valley Rd, 306","1090",-45.8757111,170.4710589,"5900_2E"
441,"Main South Rd, 19","946",-45.9019706,170.4574347,"5900_2D"
442,"Mulford St, 56","1165",-45.9035272,170.4611631,"5900_2D"
443,"Mulford St, 41","1164",-45.9033003,170.4577011,"5900_2D"
445,"SH88, Noyna Rd","1054",-45.8233117,170.6024672,"5900_3E"
445,"SH88, Noyna Rd","1055",-45.8232539,170.6022733,"5900_3E"
446,"Kaikorai Valley Rd, 93","456",-45.8675103,170.4800764,"5900_2E"
447,"Signal Hill Rd, 44","889",-45.8554444,170.5293231,"5900_2F"
448,"Kaikorai Valley Rd, 270","460",-45.8739853,170.4717647,"5900_2E"
449,"George St, 1011","311",-45.8565431,170.5134336,"5900_1/2E"
450,"Earls Rd, 39","239",-45.9100511,170.4798944,"5900_2B"
451,"Eglinton Rd, 154","248",-45.8824094,170.4844494,"5900_1/2C"
452,"Middleton Rd, 2","578",-45.9024914,170.4840783,"5900_2B"
453,"Portobello Rd, Seaton Rd","750",-45.8392417,170.6424294,"5900_3A"
454,"Drivers Rd, 4","226",-45.8610311,170.5045389,"5900_1/2E"
455,"Hillside Rd, 482","442",-45.8969706,170.4891697,"5900_2B"
456,"Mayfield Ave, 63","564",-45.8553311,170.4859133,"5900_2E"
457,"Bryant St, 3","152",-45.8856267,170.4674228,"5900_2D"
458,"Glenpark Ave, 71","327",-45.8859586,170.4805206,"5900_2D"
459,"Malvern St, 28","548",-45.8529497,170.5082067,"5900_2F"
460,"Larnach Rd, 127","1046",-45.8848878,170.5300625,"5900_2A"
461,"Highgate, 516","430",-45.8600425,170.4968144,"5900_2E"
462,"Kaikorai Valley Rd, 241","462",-45.8727631,170.4724553,"5900_2E"
463,"Midland Street, Edgar Centre","5012",-45.891621,170.510709,"5900_1"
464,"Portobello Rd, 549 (Company Bay)","1145",-45.8598664,170.5982133,"5900_3A"
465,"Balmacewen Rd, 109","1105",-45.8544153,170.4940592,"5900_2E"
466,"Eglinton Rd, cnr High St","251",-45.8826458,170.4858864,"5900_1"
467,"Mornington Rd, 50","1111",-45.8905619,170.4684367,"5900_2D"
468,"Glenholm St, opposite 55","322",-45.8413192,170.4963531,"5900_2F"
469,"Brighton Rd, Island Park","125",-45.9231028,170.4000344,"5900_3B"
470,"Musselburgh Rise, 141","611",-45.897595,170.5209303,"5900_2A"
471,"Taieri Rd, 466","975",-45.8540261,170.4632806,"5900_2E"
472,"Taieri Rd, Fern Tree Reserve","977",-45.8613347,170.4791392,"5900_2E"
473,"Highgate, 271","422",-45.8677389,170.4890617,"5900_2E"
474,"Highgate, 8","1101",-45.8730192,170.4802031,"5900_2E"
475,"Elgin Rd, 44","253",-45.8830317,170.4754528,"5900_2D"
476,"Brighton Rd, 336","115",-45.9221175,170.404025,"5900_3B"
477,"Princes St, Jean McLean Pavillion","772",-45.8885775,170.4962189,"5900_1"
478,"King Edward St, 220","475",-45.8951947,170.5000311,"5900_2B"
479,"David St, 3","219",-45.8962189,170.4819553,"5900_2B"
480,"Ashmore St, 111","43",-45.8584278,170.4634494,"5900_2E"
481,"Ashmore St, 97","49",-45.8578003,170.4645656,"5900_2E"
482,"High St, opposite High St School","385",-45.8819372,170.4883975,"5900_1"
483,"Dundas St, 113","233",-45.8624061,170.5179897,"5900_1"
484,"Highgate, 557","433",-45.8586294,170.4983914,"5900_2E"
485,"SH88, opposite 173 ( by Adderley Tce)","1053",-45.8670217,170.5486431,"5900_2G"
486,"Harrington St, 26","374",-45.822695,170.6194853,"5900_3E"
487,"Malvern St, opposite 279","547",-45.8426014,170.50337,"5900_2F"
488,"Taieri Rd, 321","969",-45.8566439,170.4739292,"5900_2E"
489,"Taieri Rd, 319","983",-45.8571439,170.4767561,"5900_2E"
490,"Gordon Rd, 6","191",-45.8844478,170.3536689,"5900_3C"
491,"Main South Rd, 298 Sunnyvale","524",-45.9015378,170.4190131,"5900_2C"
492,"Highgate, 807","1108",-45.8583008,170.5005822,"5900_2E"
493,"Brockville Rd, 162","132",-45.8661581,170.465365,"5900_2E"
494,"Highcliff Rd, 113","419",-45.8934511,170.5388083,"5900_2A"
495,"Main South Rd, opposite Sunninghurst Drive","534",-45.8978481,170.4086469,"5900_3C"
496,"Karitane, SH1","Karitane",-45.618005,170.638157,"5900_4B"
498,"Brockville Rd, 110","131",-45.8653508,170.4690231,"5900_2E"
499,"King Edward St, 300","477",-45.8967531,170.5013186,"5900_2B"
500,"Moreau St, crn Douglas St","5017",-45.906296,170.500776,"5900_2B"
501,"Malvern St, opposite 63","559",-45.8514103,170.5063006,"5900_2F"
502,"Tomahawk Rd, opposite 181","1120",-45.9035922,170.5363469,"5900_2A"
503,"Musselburgh Rise, 1","609",-45.8980408,170.5109525,"5900_2A"
504,"SH88, 227","844",-45.8661153,170.5534286,"5900_2G"
505,"Tahuna Rd, Golf Course","959",-45.9027872,170.5289222,"5900_2A"
506,"SH88, Athol Place","852",-45.8651864,170.5592636,"5900_2G"
507,"George St, 504","292",-45.8658664,170.5083367,"5900_1"
508,"Glenmore St, 38","323",-45.8403097,170.4971367,"5900_2F"
509,"Tomahawk Rd, Lagoon","991",-45.9039344,170.5419378,"5900_2A"
509,"Tomahawk Rd, Lagoon","997",-45.9040214,170.5418467,"5900_2A"
510,"Wilkinson St, 25","1021",-45.8463258,170.5189592,"5900_2F"
511,"Pine Hill Rd, 118","688",-45.8526211,170.5116531,"5900_2F"
512,"South Rd, 36","907",-45.89172,170.4941006,"5900_1"
513,"Tahuna Rd, 109","958",-45.9027547,170.5298286,"5900_2A"
515,"Waitati","Waitati",-45.746747,170.568781,"5900_3D"
516,"Hartstonge Ave, 11","375",-45.8716353,170.3495378,"5900_3C"
517,"Signal Hill Rd, 5","890",-45.8570919,170.5272319,"5900_2F"
518,"Cumberland St, 764","1010",-45.8630281,170.5132956,"5900_1"
519,"Hillside Rd, 247","447",-45.8942986,170.4959639,"5900_2B"
520,"Highcliff Rd, 281","414",-45.8857158,170.5447347,"5900_2A"
521,"Middleton Rd, 118","581",-45.9061536,170.4787833,"5900_2B"
522,"Kenmure Rd, 39","1100",-45.8747725,170.4777292,"5900_2E"
523,"Brockville Rd, 47","143",-45.8667975,170.4729797,"5900_2E"
524,"Harington Point Rd, 7 (1908 Cafe)","757",-45.8394422,170.6517436,"5900_3A"
525,"Harwood Scout Hall","681",-45.8160097,170.6734578,"5900_3A"
526,"Cumberland St, outside Countdown","4",-45.8740383,170.5069133,"5900_1"
527,"Brockville Rd, 193","140",-45.8650889,170.4633272,"5900_2E"
528,"Highgate, 517","431",-45.860025,170.4966531,"5900_2E"
529,"Ryehill St, 62","831",-45.8992822,170.4712031,"5900_2B"
530,"Brighton Rd, opposite Allen Rd","120",-45.9141858,170.4136094,"5900_3B"
531,"Harington Point Rd, 897","368",-45.7970261,170.7242997,"5900_4A"
532,"Opoho Rd, 71","666",-45.8564881,170.5238908,"5900_2F"
533,"Highgate, 546","432",-45.8591275,170.4979283,"5900_2E"
534,"Chapman St, 120","179",-45.8557808,170.4909467,"5900_2E"
535,"Dale St, 7","214",-45.8610639,170.4868239,"5900_2E"
536,"Nairn St, 61","619",-45.8632044,170.487745,"5900_2E"
538,"Middleton Rd, 101","571",-45.9061511,170.4789664,"5900_2B"
539,"Abbotsford Rd, cnr Waldron Cres","10",-45.9005919,170.4241881,"5900_2C"
540,"North Taieri Rd, 90","654",-45.8918728,170.4182708,"5900_2C"
541,"Brighton Rd, cnr Edna St","91",-45.9408556,170.3414761,"5900_3B"
542,"Duke St, 15","231",-45.8567236,170.5128761,"5900_1/2E"
543,"Malvern St, opposite 347","558",-45.8400717,170.5004061,"5900_2F"
544,"SH88, 253","845",-45.8659406,170.5560747,"5900_2G"
545,"Middleton Rd, 64","576",-45.9049183,170.4817281,"5900_2B"
546,"Brighton Rd, opposite Burgess St","1141",-45.9044964,170.4216153,"5900_2C"
547,"Brighton Rd, cnr Creamery Rd","110",-45.9380725,170.3499925,"5900_3B"
548,"Brighton Rd, 791","103",-45.9386894,170.3477744,"5900_3B"
549,"Brighton Rd, 10","109",-45.9046106,170.4216525,"5900_2C"
550,"Neill St, 5","623",-45.9012256,170.4246728,"5900_2C"
551,"Brighton Rd, Cemetery","126",-45.9291306,170.3849344,"5900_3B"
552,"Gordon Rd, Glasgow St Busbay","339",-45.8747089,170.3479817,"5900_3C"
553,"Hagart Alexander Drive, 150","1166",-45.881921,170.358075,"5900_3C"
554,"Musselburgh Rise, opposite Wardlaw St","616",-45.8979528,170.5138867,"5900_2A"
555,"Easther Cres, 7","245",-45.8995092,170.4844278,"5900_2B"
556,"Kaikorai Valley Rd, 232","453",-45.8720597,170.4727983,"5900_2E"
557,"Brighton Rd, 44","95",-45.9079989,170.4196417,"5900_2C"
558,"Brighton Rd, 944","130",-45.9446744,170.3364778,"5900_3B"
559,"Ryehill St, 6","830",-45.8988764,170.4755422,"5900_2B"
560,"Ocean Grove Terminus","994",-45.9036203,170.5496408,"5900_2A"
561,"Royal Cres, cnr Musselburgh Rise","821",-45.8987386,170.5115397,"5900_2A"
562,"Main South Rd, cnr Morton St","940",-45.9005017,170.4551667,"5900_2D"
563,"South Rd, 187","904",-45.8943186,170.4859153,"5900_2B"
564,"Aberdeen Rd, 54","14",-45.9114817,170.4782283,"5900_2B"
565,"Hillhead Rd, 173","438",-45.9096053,170.4749783,"5900_2B"
566,"Gordon Rd, cnr Bruce St","347",-45.8831358,170.3529053,"5900_3C"
567,"Playfair St, 47","712",-45.89872,170.4800592,"5900_2B"
568,"Belgrave Cres, 71 Highgate","80",-45.8709319,170.4821958,"5900_2E"
569,"Taieri Rd, 155","962",-45.8638539,170.4828281,"5900_2E"
570,"Forbury Rd, 181","277",-45.9083794,170.487895,"5900_2B"
571,"Kirkcaldy St, 7","1031",-45.8996886,170.4942214,"5900_2B"
572,"Hillside Rd, 469","449",-45.8969336,170.4895708,"5900_2B"
573,"Quarry Rd, 108","787",-45.8927381,170.3571667,"5900_3C"
574,"Rattray St, 373","790",-45.8737056,170.4940339,"5900_1"
575,"Bath St, 23","81",-45.9486,170.3285575,"5900_3B"
576,"Station Rd, 20","931",-45.82003,170.6034931,"5900_3E"
577,"Kaikorai Valley Rd, 149","465",-45.8688017,170.4753981,"5900_2E"
578,"Glenmore St, opposite 6","326",-45.8393439,170.4954972,"5900_2F"
579,"Corstorphine Rd, 31","199",-45.9013125,170.4764761,"5900_2B"
581,"Macandrew Rd, 121","496",-45.8977094,170.4978989,"5900_2B"
582,"Carnock Rd, cnr Stepney Ave","167",-45.8127025,170.6767089,"5900_3A"
583,"Highgate, 749","1106",-45.8564769,170.5057194,"5900_2E"
584,"South Rd, 110","902",-45.8920094,170.4887553,"5900_1/2B"
585,"Hillside Rd, 557","450",-45.8980172,170.4869481,"5900_2B"
586,"Silverton St, 23","896",-45.8948169,170.5282956,"5900_2A"
587,"Borlases Rd, cnr Blueskin Rd","83",-45.8184697,170.61448,"5900_3E"
588,"Chapman St, 160","180",-45.8547097,170.4935911,"5900_2E"
589,"Sidey St, 36","881",-45.8981878,170.4753922,"5900_2B"
590,"Brighton Rd, 590","101",-45.9346911,170.3703094,"5900_3B"
591,"Great King St, 806","357",-45.8581619,170.5141847,"5900_1"
592,"Forbury Rd, opposite 74","284",-45.9025992,170.4869247,"5900_2B"
593,"Main South Road, cnr Morton St","943",-45.90057,170.4553406,"5900_2D"
594,"Harington Point Rd, cnr Pipikaretu Rd","369",-45.7982339,170.7194289,"5900_4A"
595,"Ross St, 43","817",-45.8713658,170.4841,"5900_2E"
596,"Highgate, 734","435",-45.8567833,170.5046775,"5900_2E"
597,"Harington Point Rd, 310","1147",-45.8235553,170.6709061,"5900_3A"
598,"Malvern St, opposite 311","551",-45.8419539,170.5015169,"5900_2F"
599,"South Rd, 239","917",-45.8954808,170.4831178,"5900_2B"
600,"Lachlan Ave, 89","1107",-45.8595944,170.5086028,"5900_1/2E"
601,"Highgate, 354","425",-45.8656647,170.4923525,"5900_2E"
602,"Malvern St, near Rockside Rd","1136",-45.8500236,170.5043631,"5900_2F"
602,"Malvern St, near Rockside Rd","1137",-45.85001,170.5044997,"5900_2F"
603,"Portobello Rd, cnr St Ronans Rd","752",-45.8762139,170.5803586,"5900_2A"
604,"Tahuna Rd, 145","957",-45.9029636,170.5332725,"5900_2A"
605,"South Rd, 487","912",-45.8966778,170.469015,"5900_2B"
606,"Bath St, 18","82",-45.9487178,170.3286081,"5900_3B"
607,"Kenmure Rd, 81","1098",-45.8763728,170.4755583,"5900_2E"
608,"Burns St, 47","624",-45.894263,170.489855,"5900_2B"
609,"Macandrew Rd, 1","505",-45.8948431,170.5049236,"5900_2A"
610,"Pine Hill Rd, 285","694",-45.8472083,170.5144544,"5900_2F"
611,"South Rd, 369-371","908",-45.8960347,170.4775706,"5900_2B"
612,"Larnach Rd, 219","1032",-45.8817131,170.5368939,"5900_2A"
613,"Larnach Rd, 199","1047",-45.8825519,170.5346811,"5900_2A"
614,"Larnach Rd, 175","1058",-45.8833922,170.5336733,"5900_2A"
615,"Reeve St, cnr District Rd","1051",-45.8262369,170.5973389,"5900_2G/3E"
616,"Port Chalmers Rd, cnr Wren Lane Path","847",-45.8404283,170.5856506,"5900_2G"
617,"Port Chalmers Rd, St Leonards","848",-45.8426431,170.5834644,"5900_2G"
618,"SH88, 147","842",-45.8668811,170.5439947,"5900_2G"
619,"Lachlan Ave, cnr Queens Drive","1045",-45.8570364,170.5075617,"5900_2E"
620,"Balmacewen Rd, 10","54",-45.8579358,170.4998556,"5900_2E"
621,"Hillhead Rd, 151","439",-45.9088858,170.4767206,"5900_2B"
622,"Portobello Rd, Challis Point","722",-45.8795092,170.5604903,"5900_2A"
623,"Main South Rd, 158","523",-45.9020128,170.4374442,"5900_2C"
624,"Marlow St, 79","562",-45.9014889,170.5186278,"5900_2A"
625,"David St, 51","221",-45.8978631,170.4832903,"5900_2B"
626,"Hislop St, 26","1038",-45.8474778,170.51864,"5900_2F"
627,"Tidewater Drive, cnr Harwood St","987",-45.8172314,170.6687717,"5900_3A"
628,"North Taieri Rd, 91","653",-45.8916958,170.4183072,"5900_2C"
629,"Larnach Rd, 251","488",-45.8833686,170.5403786,"5900_2A"
630,"Royal Cres, Culling Park","823",-45.9027047,170.5133903,"5900_2A"
631,"King Edward St, 340","478",-45.8975114,170.5019936,"5900_2B"
632,"Dundas St, 158","236",-45.8631661,170.5211303,"5900_1"
633,"Pine Hill Rd, 198","704",-45.8497253,170.5104611,"5900_2F"
634,"Kaikorai Valley Rd, 391","1080",-45.8797919,170.4701156,"5900_2D"
635,"Kaikorai Valley Rd, 197","458",-45.8709581,170.473715,"5900_2E"
636,"SH88, 173","843",-45.8669311,170.5487689,"5900_2G"
637,"George St, 12","297",-45.8154444,170.6218444,"5900_3E"
638,"North Rd, 399","640",-45.8449519,170.5383556,"5900_2F"
639,"Magnetic St, 35","509",-45.8208483,170.6217581,"5900_3E"
640,"Port Chalmers Rd, opposite Moa St","865",-45.8486086,170.5786058,"5900_2G"
641,"Kaikorai Valley Rd, 555","1081",-45.88876,170.4625089,"5900_2D"
642,"Abbotsford Rd, cnr Severn St","9",-45.8991586,170.42272,"5900_2C"
643,"Doon St, 52","223",-45.8757894,170.3637761,"5900_3C"
644,"High St, 59","402",-45.8771789,170.3574975,"5900_3C"
645,"Royal Cres, 9","822",-45.8992539,170.511865,"5900_2A"
646,"Easther Cres, 33","244",-45.9005711,170.4834756,"5900_2B"
647,"Middleton Rd, 141","573",-45.907665,170.4767872,"5900_2B"
648,"Macandrew Rd, 64","506",-45.8961531,170.5014169,"5900_2B"
650,"Stevenson Rd, 27","937",-45.9027131,170.4622297,"5900_2D"
651,"Malvern St, opposite 145","555",-45.8486686,170.5059169,"5900_2F"
652,"Playfair St, 75","708",-45.9000294,170.4785444,"5900_2B"
653,"Mornington Rd, 7","1110",-45.8904861,170.4721325,"5900_2D"
655,"Gordon Rd, 46","342",-45.8814583,170.3519481,"5900_3C"
656,"South Rd, Glen Rd","921",-45.8919386,170.4893339,"5900_1/2B"
657,"North Rd, 275","634",-45.847865,170.5328231,"5900_2F"
658,"Signal Hill Rd, 87","893",-45.8536661,170.5319481,"5900_2F"
659,"Harbour Tce, 41","365",-45.866779,170.519569,"5900_1"
660,"Highgate, 216","420",-45.8690403,170.4868436,"5900_2E"
661,"Bush Rd, 42","156",-45.8755833,170.3414553,"5900_3C"
662,"North Rd, 253","633",-45.8486639,170.5304633,"5900_2F"
663,"Glenpark Ave, 129","333",-45.8887322,170.4792444,"5900_2D"
664,"SH88, 111","841",-45.8684936,170.5407583,"5900_2G"
665,"School Stop - DNI","3044",-45.8531069,170.5218567,"5900_2F"
666,"Ross St, Robin Hood Park","820",-45.871895,170.4901031,"5900_1"
667,"Kenmure Rd, 137","469",-45.8788939,170.4767664,"5900_2E"
668,"SH88, opposite 309","861",-45.8642469,170.5624403,"5900_2G"
669,"Chapman St, 37","181",-45.8590342,170.4887781,"5900_2E"
670,"Ross St, 5","818",-45.8718497,170.4864103,"5900_2E"
671,"Exmouth St, 5B","258",-45.8972753,170.426125,"5900_2C"
672,"George St, 72","312",-45.8172078,170.6195231,"5900_3E"
673,"Harington Point Rd, Wellers Rock","1148",-45.7978086,170.7165264,"5900_4A"
674,"Elgin Rd, 71","254",-45.8841108,170.4755103,"5900_2D"
675,"Stanley St, 5","928",-45.8850128,170.4745856,"5900_2D"
676,"Forbury Rd, 117","274",-45.9047389,170.4877617,"5900_2B"
677,"Macandrew Rd, 209","500",-45.9000439,170.4923153,"5900_2B"
678,"Portobello Rd, 430","730",-45.8737275,170.5856569,"5900_3A"
679,"Harrington St, 27","373",-45.8227039,170.6196364,"5900_3E"
680,"Riselaw Rd, 30","808",-45.8979139,170.4671303,"5900_2B"
681,"High St, 89","399",-45.8800656,170.3581383,"5900_3C"
682,"Larnach Rd, opposite 14","1118",-45.8903353,170.5260686,"5900_2A"
683,"Goodall St, 71-73","336",-45.8711747,170.3352275,"5900_3C"
684,"Playfair St, 17","709",-45.8972831,170.4803956,"5900_2B"
685,"Taieri Rd, 269","967",-45.85801,170.4778733,"5900_2E"
686,"Chery Drive, 46","187",-45.8651664,170.3580814,"5900_3C"
687,"Bush Rd, 24","160",-45.8749475,170.3436819,"5900_3C"
688,"Gordon Rd, 94","346",-45.8770678,170.349365,"5900_3C"
689,"Perth St, 59","687",-45.8756967,170.3373944,"5900_3C"
690,"Eden St,45","247",-45.8708197,170.3401042,"5900_3C"
691,"Middleton Rd, 11","572",-45.9025722,170.4840628,"5900_2B"
692,"Brighton Rd, 980","106",-45.9451908,170.3342181,"5900_3B"
693,"North Taieri Road, 131","1173",-45.889181,170.417047,"5900_2C"
694,"Neill St, 29","622",-45.9003969,170.4279914,"5900_2C"
695,"Factory Rd, 47","267",-45.8722294,170.3529067,"5900_3C"
696,"Cavell St, 73","175",-45.9008361,170.5200478,"5900_2A"
697,"Paterson St, 6","685",-45.8980236,170.42824,"5900_2C"
698,"Brighton Rd, 863","121",-45.9409786,170.3414164,"5900_3B"
699,"Gordon Rd, 188","340",-45.8718767,170.3463383,"5900_3C"
700,"Argyle St, 69","39",-45.8800653,170.3470589,"5900_3C"
701,"Kaikorai Valley Rd, 115","459",-45.8679964,170.4782333,"5900_2E"
702,"Middleton Rd, 235","570",-45.9092836,170.4706347,"5900_2B"
703,"Brockville Rd, 263","142",-45.8671839,170.4576094,"5900_2E"
704,"Glenholm St, 57","321",-45.8414219,170.4962553,"5900_2F"
705,"Wakari Rd, 150","1016",-45.8509156,170.4798133,"5900_2E"
706,"Crichton St, 6","209",-45.8568375,170.4849614,"5900_2E"
707,"Signal Hill Rd, 53","891",-45.8549961,170.5297483,"5900_2F"
708,"Portobello Rd, 352","714",-45.8793425,170.5644739,"5900_2A"
709,"Kaikorai Valley Rd, 309","1079",-45.8756911,170.4712867,"5900_2E"
710,"Helensburgh Rd, 261","379",-45.8518986,170.4836625,"5900_2E"
711,"Main South Rd, 106","529",-45.9024339,170.4447256,"5900_2C"
712,"Portobello Rd, 723 (Company Bay)","723",-45.8598489,170.5980247,"5900_3A"
713,"Brighton Rd, 369","113",-45.9231517,170.4001914,"5900_3B"
714,"Drivers Rd, cnr Tolcarne Ave","228",-45.8612053,170.5047311,"5900_1/2E"
715,"Drivers Rd, 39","225",-45.8599533,170.502325,"5900_2E"
716,"Pearse St, 3","686",-45.9501092,170.3266811,"5900_3B"
717,"School Stop - Kings HS","3007",-45.9036044,170.4935375,"5900_2B"
718,"Factory Rd, 29","260",-45.8729025,170.3508397,"5900_3C"
719,"Brighton Rd, cnr McColl Rd","90",-45.9372872,170.3551969,"5900_3B"
720,"Rentons Rd, 7","801",-45.8697942,170.3579917,"5900_3C"
721,"Chapman St, opposite 160","185",-45.8547836,170.4934164,"5900_2E"
722,"North Taieri Rd, 37","650",-45.8961997,170.4208861,"5900_2C"
723,"Ashmore St, 7","48",-45.8567119,170.4708964,"5900_2E"
724,"Ashmore St, 27","46",-45.8577597,170.4689458,"5900_2E"
725,"Mayfield Ave, 66","565",-45.8553108,170.4860742,"5900_2E"
726,"Royal Cres, 33","826",-45.9012083,170.5127306,"5900_2A"
727,"Cavell St, 123","173",-45.9029989,170.5232761,"5900_2A"
728,"North Rd, 375","638",-45.8457656,170.5369697,"5900_2F"
729,"Brockville Rd, 295","145",-45.8672381,170.45528,"5900_2E"
730,"Argyle St, 41","37",-45.8838436,170.3492272,"5900_3C"
731,"Brighton Rd, opposite Viscount Rd","127",-45.939345,170.3446433,"5900_3B"
732,"Kokomuka Ave, cnr Stepney Ave","192",-45.8131222,170.6714325,"5900_3A"
733,"South Rd, 475","910",-45.8962644,170.4707175,"5900_2B"
734,"Murray St, 55","606",-45.8677317,170.3546261,"5900_3C"
735,"High St, 33","397",-45.874795,170.356128,"5900_3C"
736,"Murray St, 5","607",-45.8690947,170.3498056,"5900_3C"
737,"Brighton Rd, opposite Cemetery","129",-45.9274786,170.3879708,"5900_3B"
738,"Brockville Rd, 165","138",-45.8661114,170.4649639,"5900_2E"
739,"North Taieri Rd, 11","649",-45.8977778,170.4220794,"5900_2C"
740,"North Rd, 329","637",-45.8471592,170.5346086,"5900_2F"
741,"Severn St, 41","838",-45.8674881,170.3625342,"5900_3C"
742,"Forbury Rd, 161","276",-45.9073031,170.4872528,"5900_2B"
743,"Fulton Rd, 385","288",-45.8385964,170.4988006,"5900_2F"
744,"South Rd, opposite 44","920",-45.8920269,170.4935472,"5900_1"
745,"Drivers Rd Layby","227",-45.8628394,170.5052333,"5900_1"
746,"South Rd, 439","922",-45.8973894,170.4717833,"5900_2B"
747,"South Rd, 511","923",-45.8966728,170.4672297,"5900_2B"
748,"North Taieri Rd, opposite 11","655",-45.8977853,170.4219611,"5900_2C"
749,"Macandrew Rd, 153","498",-45.8983328,170.4964783,"5900_2B"
750,"Greenhill Ave, 3","358",-45.8586247,170.4837222,"5900_2E"
751,"Malvern St, 31","550",-45.8526522,170.5080319,"5900_2F"
752,"Braemar St, 45","89",-45.8716142,170.3343117,"5900_3C"
753,"Brockville Rd, 101","144",-45.8655322,170.4687853,"5900_2E"
754,"Elgin Rd, 27","252",-45.8823044,170.4759581,"5900_2D"
755,"Middleton Rd, 175","574",-45.9087442,170.4744608,"5900_2B"
756,"Corstorphine Rd, 193","198",-45.9087006,170.4702092,"5900_2B"
757,"Brighton Rd, 488","117",-45.9310475,170.3821256,"5900_3B"
758,"Mitchell Ave, 38","587",-45.8884942,170.4769033,"5900_2D"
759,"Elgin Rd, 139","874",-45.8880053,170.4738828,"5900_2D"
760,"Gordon Rd, 64","344",-45.8795847,170.3508367,"5900_3C"
761,"High St, 73","398",-45.87859,170.3582769,"5900_3C"
762,"Corstorphine Rd, 81","200",-45.9035989,170.4717011,"5900_2B"
763,"Brighton Rd, 331","128",-45.9220831,170.404475,"5900_3B"
764,"Malvern St, 145","542",-45.8487675,170.5057161,"5900_2F"
765,"Cavell St, 91","176",-45.9014131,170.5210278,"5900_2A"
766,"Glenmore St, 39","324",-45.8401825,170.4970594,"5900_2F"
767,"Signal Hill Rd, 139","884",-45.8523653,170.5356792,"5900_2F"
768,"Pine Hill Rd, 351","699",-45.844045,170.5177317,"5900_2F"
769,"Brighton Rd, cnr Friendship Dr","116",-45.9209706,170.4089422,"5900_3B"
770,"Malvern St, 311","557",-45.8419636,170.5014011,"5900_2F"
771,"Cherry Drive, 12","186",-45.8664428,170.3595775,"5900_3C"
772,"North Taieri Rd, 63","652",-45.8935422,170.4193708,"5900_2C"
773,"Cumberland St, 894","210",-45.8590514,170.5155056,"5900_1"
774,"Taieri Rd, 185","964",-45.8627039,170.48106,"5900_2E"
775,"Tanner Rd, 106","984",-45.8419925,170.4965314,"5900_2F"
776,"Highcliff Rd, 193-195","410",-45.8893875,170.5407508,"5900_2A"
777,"Malvern St, 65","552",-45.8514167,170.5061258,"5900_2F"
778,"Chapman St, 65","183",-45.8574203,170.4905725,"5900_2E"
779,"Malvern St, 279","556",-45.8426642,170.5033531,"5900_2F"
780,"Highcliff Rd, 1","406",-45.8968719,170.5317617,"5900_2A"
781,"Murray St, 45","601",-45.8682569,170.3527861,"5900_3C"
782,"Kaikorai Valley Rd, 673","1082",-45.8931164,170.4598917,"5900_2D"
783,"North Taieri Rd, 4","656",-45.8961647,170.4207753,"5900_2C"
785,"Highcliff Rd, 73","417",-45.8952781,170.5365969,"5900_2A"
786,"Malvern St, opposite 180","543",-45.8467589,170.5062408,"5900_2F"
787,"Kaikorai Valley Rd, 703","1083",-45.8961703,170.45805,"5900_2D"
788,"Malvern St, 339","560",-45.8406917,170.5002628,"5900_2F"
789,"Malvern St, 3","549",-45.8544803,170.5083825,"5900_2F"
790,"Gordon Rd, 228","348",-45.8687425,170.3445119,"5900_3C"
791,"Signal Hill Rd, 119","886",-45.8529372,170.5340431,"5900_2F"
792,"Taieri Rd, 251","966",-45.8596494,170.47829,"5900_2E"
793,"Dundas St, 118","234",-45.8622064,170.5175733,"5900_1"
794,"North Taieri Rd, 51","651",-45.8951472,170.4202061,"5900_2C"
795,"Macandrew Rd, 4","508",-45.8949411,170.5044347,"5900_2A"
796,"Middleton Rd, 47","575",-45.9039208,170.4833508,"5900_2B"
797,"Eden St, 23-29","246",-45.8695572,170.3408458,"5900_3C"
798,"Brighton Rd, 820","104",-45.9394442,170.3446072,"5900_3B"
799,"Highcliff Rd, 51","416",-45.8963483,170.5352944,"5900_2A"
800,"Tomahawk Rd, 179","990",-45.9035325,170.5363692,"5900_2A"
801,"Chapman St, 119","178",-45.8557661,170.4908731,"5900_2E"
802,"Queen St, 12","789",-45.9491261,170.3261528,"5900_3B"
803,"Malvern St, 79","553",-45.8511978,170.5045022,"5900_2F"
804,"Pine Hill Rd, 315","697",-45.8455953,170.5170503,"5900_2F"
806,"Dall St, 1A","215",-45.8997364,170.4299119,"5900_2C"
807,"Silverton St, 57","897",-45.8960233,170.5302925,"5900_2A"
808,"Balmacewen Rd, 178","55",-45.8540311,170.4890733,"5900_2E"
809,"Brighton Rd, 723","102",-45.9374169,170.3550086,"5900_3B"
810,"Murray St, 33","608",-45.8685922,170.3515661,"5900_3C"
811,"Bush Rd, 70","157",-45.8763006,170.3388958,"5900_3C"
812,"Main South Rd, 90","528",-45.9023592,170.4471483,"5900_2C"
813,"Goodall St, 57","335",-45.8712119,170.3367808,"5900_3C"
814,"SH88, 309","846",-45.8642758,170.5619783,"5900_2G"
815,"Goodall St, 25-27","334",-45.8712042,170.3395481,"5900_3C"
816,"Helensburgh Rd, 281","382",-45.8508647,170.4815431,"5900_2E"
818,"Pine Hill Rd, 237","692",-45.8480878,170.5112931,"5900_2F"
819,"Malvern St, Leith Stream","545",-45.8449183,170.5064008,"5900_2F"
820,"Brighton Rd, cnr Allen Rd","108",-45.9142286,170.4137064,"5900_3B"
821,"Argyle St, 109","34",-45.8761861,170.34481,"5900_3C"
822,"Mornington Rd, 131","1115",-45.8934958,170.4639325,"5900_2D"
823,"Braemar St, 21","86",-45.8741506,170.335785,"5900_3C"
824,"Elgin Rd, 165","249",-45.8893019,170.4733292,"5900_2D"
825,"Argyle St, 91","36",-45.8782725,170.3460275,"5900_3C"
826,"Gladstone Rd, 177","319",-45.8491756,170.5138364,"5900_2F"
827,"Pine Hill Rd, 265","693",-45.8478747,170.5130394,"5900_2F"
828,"Highcliff Rd, 247","413",-45.8871178,170.5430328,"5900_2A"
829,"Main South Rd, cnr Winifred St","531",-45.9017969,170.4518186,"5900_2C"
830,"Brighton Rd, 587","100",-45.9347453,170.3705025,"5900_3B"
831,"Middleton Rd, 61","583",-45.9049019,170.4818722,"5900_2B"
833,"Harington Point Rd, 78","1146",-45.8369278,170.661195,"5900_3A"
834,"Cherry Drive, 60","188",-45.8659528,170.3564981,"5900_3C"
836,"Brighton Rd, 349","96",-45.9225317,170.4026783,"5900_3B"
837,"David St, 76","222",-45.8988189,170.4840742,"5900_2B"
838,"Hagart Alexander Drive, 168","361",-45.8832375,170.3565244,"5900_3C"
839,"Mornington Rd, 71","1112",-45.8911128,170.4669678,"5900_2D"
840,"Logan Park High School Terminus","1109",-45.8624322,170.5273689,"5900_1"
841,"Hislop St, 25","1037",-45.8474189,170.5186439,"5900_2F"
842,"Wilkinson St Playground","1022",-45.8464347,170.5190117,"5900_2F"
843,"Tomahawk Rd, 285","992",-45.9034714,170.5456347,"5900_2A"
844,"Riselaw Rd, 84","1125",-45.900535,170.4692956,"5900_2B"
846,"Riselaw Rd, 148","1127",-45.9038578,170.4707475,"5900_2B"
847,"Brighton Rd, 487","98",-45.9308494,170.3825044,"5900_3B"
849,"Forbury Rd, 24","281",-45.9001394,170.4852789,"5900_2B"
850,"Forbury Rd, 64","282",-45.9021233,170.4864847,"5900_2B"
851,"Kirkcaldy St, 19","1028",-45.9004286,170.4948264,"5900_2B"
